var locations = {
"type": "FeatureCollection",
"crs": { "type": "name", "properties": { "name": "urn:ogc:def:crs:OGC:1.3:CRS84" } },
                                                                                
"features": [
{ "type": "Feature", "properties": { "Name": "Benton County Sheriff Office", "Address": "113 E 3rd St", "Address2": null, "City": "Vinton", "State": "IA", "Zip": "52349", "addrtype": "street_address", "addrlocat": "RANGE_INTERPOLATED" }, "geometry": { "type": "Point", "coordinates": [ -92.0241167, 42.1686765 ] } },
{ "type": "Feature", "properties": { "Name": "Boone County Sheriff Office", "Address": "1019 West Mamie Eisenhower", "Address2": null, "City": "Boone", "State": "IA", "Zip": "50036", "addrtype": "premise", "addrlocat": "ROOFTOP" }, "geometry": { "type": "Point", "coordinates": [ -93.9062336, 42.0595356 ] } },
{ "type": "Feature", "properties": { "Name": "Buena Vista County Sheriff Office", "Address": "411 Expansion Blvd", "Address2": "PO Box 276", "City": "Storm Lake", "State": "IA", "Zip": "50588", "addrtype": "street_address", "addrlocat": "RANGE_INTERPOLATED" }, "geometry": { "type": "Point", "coordinates": [ -95.1778324, 42.6404285 ] } },
{ "type": "Feature", "properties": { "Name": "Cedar County Sheriff Office", "Address": "711 E South St", "Address2": null, "City": "Tipton", "State": "IA", "Zip": "52772", "addrtype": "street_address", "addrlocat": "ROOFTOP" }, "geometry": { "type": "Point", "coordinates": [ -91.1219509, 41.7618149 ] } },
{ "type": "Feature", "properties": { "Name": "Cerro Gordo County Sheriff Office", "Address": "17262 Lark Avenue", "Address2": null, "City": "Mason City", "State": "IA", "Zip": "50401", "addrtype": "street_address", "addrlocat": "ROOFTOP" }, "geometry": { "type": "Point", "coordinates": [ -93.280552, 43.145158 ] } },
{ "type": "Feature", "properties": { "Name": "Cherokee Police Department", "Address": "239 W Maple St", "Address2": null, "City": "Cherokee", "State": "IA", "Zip": "51012", "addrtype": "premise", "addrlocat": "ROOFTOP" }, "geometry": { "type": "Point", "coordinates": [ -95.5532413, 42.7486218 ] } },
{ "type": "Feature", "properties": { "Name": "Clay County Sheriff Office", "Address": "3115 W 4th St", "Address2": "PO Box 7957", "City": "Spencer", "State": "IA", "Zip": "51301", "addrtype": "street_address", "addrlocat": "RANGE_INTERPOLATED" }, "geometry": { "type": "Point", "coordinates": [ -95.1894518, 43.1415267 ] } },
{ "type": "Feature", "properties": { "Name": "Spencer Police Department", "Address": "405 1st Ave W", "Address2": null, "City": "Spencer", "State": "IA", "Zip": "51301", "addrtype": "street_address", "addrlocat": "RANGE_INTERPOLATED" }, "geometry": { "type": "Point", "coordinates": [ -95.1461525, 43.141414 ] } },
{ "type": "Feature", "properties": { "Name": "Clinton County Sheriff Office", "Address": "241 7th Ave N", "Address2": null, "City": "Clinton", "State": "IA", "Zip": "52722", "addrtype": "street_address", "addrlocat": "RANGE_INTERPOLATED" }, "geometry": { "type": "Point", "coordinates": [ -90.1873557, 41.8510073 ] } },
{ "type": "Feature", "properties": { "Name": "Clinton Police Department", "Address": "113 6th Ave S", "Address2": null, "City": "Clinton", "State": "IA", "Zip": "52732", "addrtype": "street_address", "addrlocat": "ROOFTOP" }, "geometry": { "type": "Point", "coordinates": [ -90.1864842, 41.839937 ] } },
{ "type": "Feature", "properties": { "Name": "Camanche Police Department", "Address": "819 S Washington Blvd", "Address2": null, "City": "Camanche", "State": "IA", "Zip": "52730", "addrtype": "street_address", "addrlocat": "RANGE_INTERPOLATED" }, "geometry": { "type": "Point", "coordinates": [ -90.2579071, 41.7869452 ] } },
{ "type": "Feature", "properties": { "Name": "DeWitt Police Department", "Address": "606 9th St", "Address2": null, "City": "DeWitt", "State": "IA", "Zip": "52742", "addrtype": "street_address", "addrlocat": "ROOFTOP" }, "geometry": { "type": "Point", "coordinates": [ -90.5393358, 41.8243013 ] } },
{ "type": "Feature", "properties": { "Name": "West Des Moines Police Department", "Address": "250 Mills Civic Pkwy", "Address2": null, "City": "West Des Moines", "State": "IA", "Zip": "50265", "addrtype": "premise", "addrlocat": "ROOFTOP" }, "geometry": { "type": "Point", "coordinates": [ -93.7529777, 41.5673424 ] } },
{ "type": "Feature", "properties": { "Name": "Decatur County Sheriff Office", "Address": "207 N Main St", "Address2": null, "City": "Leon", "State": "IA", "Zip": "50144", "addrtype": "street_address", "addrlocat": "ROOFTOP" }, "geometry": { "type": "Point", "coordinates": [ -93.7463397, 40.7407177 ] } },
{ "type": "Feature", "properties": { "Name": "Fayette County Sheriff Office", "Address": "220 N Industrial Parkway", "Address2": "Po Box 518", "City": "West Union", "State": "IA", "Zip": "52175", "addrtype": "premise", "addrlocat": "ROOFTOP" }, "geometry": { "type": "Point", "coordinates": [ -91.8187024, 42.9439148 ] } },
{ "type": "Feature", "properties": { "Name": "Charles City Police Department", "Address": "105 Milwaukee Mall", "Address2": null, "City": "Charles City", "State": "IA", "Zip": "50616", "addrtype": "route", "addrlocat": "GEOMETRIC_CENTER" }, "geometry": { "type": "Point", "coordinates": [ -92.6740276, 43.0694049 ] } },
{ "type": "Feature", "properties": { "Name": "Franklin County Sheriff Office", "Address": "105 5th St SW PO Box 57", "Address2": null, "City": "Hampton", "State": "IA", "Zip": "50441", "addrtype": "street_address", "addrlocat": "RANGE_INTERPOLATED" }, "geometry": { "type": "Point", "coordinates": [ -93.2135705, 42.7407402 ] } },
{ "type": "Feature", "properties": { "Name": "Greene County Sheriff Office", "Address": "204 S Chestnut St", "Address2": null, "City": "Jefferson", "State": "IA", "Zip": "50129", "addrtype": "street_address", "addrlocat": "RANGE_INTERPOLATED" }, "geometry": { "type": "Point", "coordinates": [ -94.3734423, 42.0142372 ] } },
{ "type": "Feature", "properties": { "Name": "Grundy County Sheriff Office", "Address": "705 8th St", "Address2": null, "City": "Grundy", "State": "IA", "Zip": "50638", "addrtype": "street_address", "addrlocat": "RANGE_INTERPOLATED" }, "geometry": { "type": "Point", "coordinates": [ -92.7740049, 42.3614587 ] } },
{ "type": "Feature", "properties": { "Name": "Hamilton County Sheriff Office", "Address": "2300 Superior St", "Address2": "PO Box 444", "City": "Webster City", "State": "IA", "Zip": "50595", "addrtype": "premise", "addrlocat": "ROOFTOP" }, "geometry": { "type": "Point", "coordinates": [ -93.8149005, 42.4532717 ] } },
{ "type": "Feature", "properties": { "Name": "Hancock County Sheriff Office", "Address": "875 State St", "Address2": "PO Box 70", "City": "Garner", "State": "IA", "Zip": "50438", "addrtype": "street_address", "addrlocat": "RANGE_INTERPOLATED" }, "geometry": { "type": "Point", "coordinates": [ -93.6021134, 43.0970412 ] } },
{ "type": "Feature", "properties": { "Name": "Hardin County Sheriff Office", "Address": "1116 14th Ave", "Address2": null, "City": "Eldora", "State": "IA", "Zip": "50627", "addrtype": "premise", "addrlocat": "ROOFTOP" }, "geometry": { "type": "Point", "coordinates": [ -93.0975702, 42.3601128 ] } },
{ "type": "Feature", "properties": { "Name": "Henry County Sheriff Office", "Address": "106 E Clay St", "Address2": "PO Box 216", "City": "Mount Pleasant", "State": "IA", "Zip": "52641", "addrtype": "street_address", "addrlocat": "RANGE_INTERPOLATED" }, "geometry": { "type": "Point", "coordinates": [ -91.5534448, 40.9644058 ] } },
{ "type": "Feature", "properties": { "Name": "Mount Pleasant Police Department", "Address": "204 E Washington St", "Address2": null, "City": "Mount Pleasant", "State": "IA", "Zip": "52641", "addrtype": "street_address", "addrlocat": "RANGE_INTERPOLATED" }, "geometry": { "type": "Point", "coordinates": [ -91.551892, 40.965311 ] } },
{ "type": "Feature", "properties": { "Name": "Howard County Sheriff Office", "Address": "124 S Park Pl", "Address2": null, "City": "Cresco", "State": "IA", "Zip": "52136", "addrtype": "street_address", "addrlocat": "RANGE_INTERPOLATED" }, "geometry": { "type": "Point", "coordinates": [ -92.1159456, 43.3732388 ] } },
{ "type": "Feature", "properties": { "Name": "Humboldt County Sheriff Office", "Address": "430 Sumner Ave", "Address2": null, "City": "Humboldt", "State": "IA", "Zip": "50548", "addrtype": "street_address", "addrlocat": "RANGE_INTERPOLATED" }, "geometry": { "type": "Point", "coordinates": [ -94.2134487, 42.721139 ] } },
{ "type": "Feature", "properties": { "Name": "Iowa County Sheriff Office", "Address": "960 Franklyn Ave", "Address2": null, "City": "Marengo", "State": "IA", "Zip": "52301", "addrtype": "street_address", "addrlocat": "ROOFTOP" }, "geometry": { "type": "Point", "coordinates": [ -92.0711674, 41.801043 ] } },
{ "type": "Feature", "properties": { "Name": "Jackson County Sheriff Office", "Address": "104 S Niagara", "Address2": null, "City": "Maquoketa", "State": "IA", "Zip": "52060", "addrtype": "street_address", "addrlocat": "ROOFTOP" }, "geometry": { "type": "Point", "coordinates": [ -90.6680677, 42.0688623 ] } },
{ "type": "Feature", "properties": { "Name": "Jones County Sheriff Office", "Address": "500 Main St", "Address2": "PO Box 167", "City": "Anamosa", "State": "IA", "Zip": "52205", "addrtype": "street_address", "addrlocat": "RANGE_INTERPOLATED" }, "geometry": { "type": "Point", "coordinates": [ -91.2441952, 42.0055443 ] } },
{ "type": "Feature", "properties": { "Name": "Kossuth County Sheriff Office", "Address": "121 W State St", "Address2": null, "City": "Algona", "State": "IA", "Zip": "50511", "addrtype": "street_address", "addrlocat": "RANGE_INTERPOLATED" }, "geometry": { "type": "Point", "coordinates": [ -94.2381878, 43.0688508 ] } },
{ "type": "Feature", "properties": { "Name": "Lee County Sheriff Office", "Address": "2530 255th St", "Address2": null, "City": "Montrose", "State": "IA", "Zip": "52639", "addrtype": "street_address", "addrlocat": "ROOFTOP" }, "geometry": { "type": "Point", "coordinates": [ -91.4258088, 40.5926495 ] } },
{ "type": "Feature", "properties": { "Name": "Linn County Sheriff Office", "Address": "310 2nd Ave SW", "Address2": "PO Box 669", "City": "Cedar Rapids", "State": "IA", "Zip": "52406", "addrtype": "premise", "addrlocat": "ROOFTOP" }, "geometry": { "type": "Point", "coordinates": [ -91.6756383, 41.9749963 ] } },
{ "type": "Feature", "properties": { "Name": "Marion County Sheriff Office", "Address": "211 N Godfrey Lane", "Address2": null, "City": "Knoxville", "State": "IA", "Zip": "50138", "addrtype": "street_address", "addrlocat": "ROOFTOP" }, "geometry": { "type": "Point", "coordinates": [ -93.0588131, 41.317908 ] } },
{ "type": "Feature", "properties": { "Name": "Mitchell County Sheriff Office", "Address": "211 6th St", "Address2": null, "City": "Osage", "State": "IA", "Zip": "50461", "addrtype": "street_address", "addrlocat": "RANGE_INTERPOLATED" }, "geometry": { "type": "Point", "coordinates": [ -92.8129128, 43.2829607 ] } },
{ "type": "Feature", "properties": { "Name": "LeMars Police Department", "Address": "22 2nd St NE", "Address2": null, "City": "Le Mars", "State": "IA", "Zip": "51031", "addrtype": "premise", "addrlocat": "ROOFTOP" }, "geometry": { "type": "Point", "coordinates": [ -96.1656745, 42.7952144 ] } },
{ "type": "Feature", "properties": { "Name": "Pocahontas Police Department", "Address": "23 W Elm Ave", "Address2": null, "City": "Pocahontas", "State": "IA", "Zip": "50574", "addrtype": "street_address", "addrlocat": "ROOFTOP" }, "geometry": { "type": "Point", "coordinates": [ -94.669199, 42.732525 ] } },
{ "type": "Feature", "properties": { "Name": "Polk County Sheriff Office", "Address": "6023 NE 14th St", "Address2": null, "City": "Des Moines", "State": "IA", "Zip": "50313", "addrtype": "street_address", "addrlocat": "ROOFTOP" }, "geometry": { "type": "Point", "coordinates": [ -93.5995153, 41.6694865 ] } },
{ "type": "Feature", "properties": { "Name": "Sac County Courthouse", "Address": "100 NW State St", "Address2": "PO Box 113", "City": "Sac City", "State": "IA", "Zip": "50583", "addrtype": "street_address", "addrlocat": "RANGE_INTERPOLATED" }, "geometry": { "type": "Point", "coordinates": [ -94.9886124, 42.4219854 ] } },
{ "type": "Feature", "properties": { "Name": "Ames Police Department", "Address": "515 Clarke Ave", "Address2": null, "City": "Ames", "State": "IA", "Zip": "50010", "addrtype": "premise", "addrlocat": "ROOFTOP" }, "geometry": { "type": "Point", "coordinates": [ -93.6177187, 42.0263505 ] } },
{ "type": "Feature", "properties": { "Name": "Inidanola Police Department", "Address": "110 N 1st St", "Address2": null, "City": "Indianola", "State": "IA", "Zip": "50125", "addrtype": "premise", "addrlocat": "ROOFTOP" }, "geometry": { "type": "Point", "coordinates": [ -93.5591581, 41.3609271 ] } },
{ "type": "Feature", "properties": { "Name": "Carlisle Police Department", "Address": "195 N First St", "Address2": null, "City": "Carlisle", "State": "IA", "Zip": "50047", "addrtype": "premise", "addrlocat": "ROOFTOP" }, "geometry": { "type": "Point", "coordinates": [ -93.4863986, 41.4994056 ] } },
{ "type": "Feature", "properties": { "Name": "Winnebago County Sheriff Office", "Address": "216 S Clark St", "Address2": null, "City": "Forest City", "State": "IA", "Zip": "50436", "addrtype": "street_address", "addrlocat": "RANGE_INTERPOLATED" }, "geometry": { "type": "Point", "coordinates": [ -93.6384204, 43.2624785 ] } },
{ "type": "Feature", "properties": { "Name": "Worth County Sheriff Office", "Address": "1000 Central", "Address2": null, "City": "Northwood", "State": "IA", "Zip": "50459", "addrtype": "street_address", "addrlocat": "ROOFTOP" }, "geometry": { "type": "Point", "coordinates": [ -93.2177196, 43.4444615 ] } },
{ "type": "Feature", "properties": { "Name": "Bellevue Police Department", "Address": "106 N.3rd Street", "Address2": null, "City": "Bellevue", "State": "IA", "Zip": "520361", "addrtype": "street_address", "addrlocat": "RANGE_INTERPOLATED" }, "geometry": { "type": "Point", "coordinates": [ -90.4254736, 42.258212 ] } },
{ "type": "Feature", "properties": { "Name": "Bancroft Police Department", "Address": "304 South Summit Street", "Address2": null, "City": "Bancroft", "State": "IA", "Zip": "50517", "addrtype": "street_address", "addrlocat": "RANGE_INTERPOLATED" }, "geometry": { "type": "Point", "coordinates": [ -94.2165679, 43.2910369 ] } },
{ "type": "Feature", "properties": { "Name": "Monticello Police Department", "Address": "201 East South Street", "Address2": null, "City": "Monticello", "State": "IA", "Zip": "52310", "addrtype": "street_address", "addrlocat": "RANGE_INTERPOLATED" }, "geometry": { "type": "Point", "coordinates": [ -91.1881566, 42.2323242 ] } },
{ "type": "Feature", "properties": { "Name": "Johnson County Sheriff's Office", "Address": "511 South Capitol Street", "Address2": null, "City": "Iowa City", "State": "IA", "Zip": "52241", "addrtype": "premise", "addrlocat": "ROOFTOP" }, "geometry": { "type": "Point", "coordinates": [ -91.5365343, 41.6550078 ] } },
{ "type": "Feature", "properties": { "Name": "Coralville Police Department", "Address": "1503 5th Street", "Address2": null, "City": "Coralville", "State": "IA", "Zip": "52241", "addrtype": "street_address", "addrlocat": "ROOFTOP" }, "geometry": { "type": "Point", "coordinates": [ -91.5834247, 41.6779196 ] } },
{ "type": "Feature", "properties": { "Name": "Sioux City Police Department", "Address": "601 Douglas Street", "Address2": null, "City": "Sioux City", "State": "IA", "Zip": "51101", "addrtype": "premise", "addrlocat": "ROOFTOP" }, "geometry": { "type": "Point", "coordinates": [ -96.4068432, 42.4966166 ] } },
{ "type": "Feature", "properties": { "Name": "University Heights Police Department", "Address": "1004 Melrose Ave", "Address2": null, "City": "Iowa City", "State": "IA", "Zip": "52246", "addrtype": "premise", "addrlocat": "ROOFTOP" }, "geometry": { "type": "Point", "coordinates": [ -91.5534647, 41.6571038 ] } },
{ "type": "Feature", "properties": { "Name": "Marshalltown Police Department", "Address": "22 North Center Street", "Address2": null, "City": "Marshalltown", "State": "IA", "Zip": "50158", "addrtype": "premise", "addrlocat": "ROOFTOP" }, "geometry": { "type": "Point", "coordinates": [ -92.9134382, 42.0498503 ] } },
{ "type": "Feature", "properties": { "Name": "Belle Plaine Police Department", "Address": "1207 8th Ave", "Address2": null, "City": "Belle Plaine", "State": "IA", "Zip": "52208", "addrtype": "street_address", "addrlocat": "RANGE_INTERPOLATED" }, "geometry": { "type": "Point", "coordinates": [ -92.2765678, 41.8963428 ] } },
{ "type": "Feature", "properties": { "Name": "Cedar Rapids Police Department", "Address": "505 1st Street SW", "Address2": null, "City": "Cedar Rapids", "State": "IA", "Zip": "52404", "addrtype": "premise", "addrlocat": "ROOFTOP" }, "geometry": { "type": "Point", "coordinates": [ -91.6696568, 41.9723284 ] } },
{ "type": "Feature", "properties": { "Name": "Mason City Police Department", "Address": "78 South Georgia Ave", "Address2": null, "City": "Mason City", "State": "IA", "Zip": "50401", "addrtype": "premise", "addrlocat": "ROOFTOP" }, "geometry": { "type": "Point", "coordinates": [ -93.1965877, 43.1513422 ] } },
{ "type": "Feature", "properties": { "Name": "Mount Vernon Police Department", "Address": "213 1st Street NW", "Address2": null, "City": "Mount Vernon", "State": "IA", "Zip": "52314", "addrtype": "street_address", "addrlocat": "ROOFTOP" }, "geometry": { "type": "Point", "coordinates": [ -91.418447, 41.923444 ] } },
{ "type": "Feature", "properties": { "Name": "Lisbon Police Departement", "Address": "115 N Washington Street", "Address2": null, "City": "Lisbon", "State": "IA", "Zip": "52253", "addrtype": "street_address", "addrlocat": "RANGE_INTERPOLATED" }, "geometry": { "type": "Point", "coordinates": [ -91.3855226, 41.9214338 ] } },
{ "type": "Feature", "properties": { "Name": "Lake Mills Police Department", "Address": "304 S Mill Street", "Address2": null, "City": "Lake Mills", "State": "IA", "Zip": "50450", "addrtype": "street_address", "addrlocat": "RANGE_INTERPOLATED" }, "geometry": { "type": "Point", "coordinates": [ -93.5351485, 43.4164445 ] } },
{ "type": "Feature", "properties": { "Name": "Denison Police Department", "Address": "1119 1st Ave North", "Address2": null, "City": "Denison", "State": "IA", "Zip": "51442", "addrtype": "street_address", "addrlocat": "ROOFTOP" }, "geometry": { "type": "Point", "coordinates": [ -95.3568958, 42.0176376 ] } },
{ "type": "Feature", "properties": { "Name": "Shenandoah Police Department", "Address": "400 W Cheridan Street", "Address2": null, "City": "Shenandoah", "State": "IA", "Zip": "51601", "addrtype": "street_address", "addrlocat": "RANGE_INTERPOLATED" }, "geometry": { "type": "Point", "coordinates": [ -95.369889, 40.7659378 ] } },
{ "type": "Feature", "properties": { "Name": "Atlantic Police Department", "Address": "23 East 4th Street", "Address2": null, "City": "Atlantic", "State": "IA", "Zip": "50022", "addrtype": "street_address", "addrlocat": "RANGE_INTERPOLATED" }, "geometry": { "type": "Point", "coordinates": [ -95.0126774, 41.4069829 ] } },
{ "type": "Feature", "properties": { "Name": "Pottawattamie County Sheriff's Office", "Address": "1400 Big Lake Road", "Address2": null, "City": "Council Bluffs", "State": "IA", "Zip": "51501", "addrtype": "premise", "addrlocat": "ROOFTOP" }, "geometry": { "type": "Point", "coordinates": [ -95.8652464, 41.2842793 ] } },
{ "type": "Feature", "properties": { "Name": "Red Oak Police Department", "Address": "106 E Coolbaugh Street", "Address2": null, "City": "Red Oak", "State": "IA", "Zip": "51566", "addrtype": "street_address", "addrlocat": "ROOFTOP" }, "geometry": { "type": "Point", "coordinates": [ -95.2317126, 41.0088347 ] } },
{ "type": "Feature", "properties": { "Name": "Marion Police Department", "Address": "3911 Katz Drive", "Address2": null, "City": "Marion", "State": "IA", "Zip": "52302", "addrtype": "street_address", "addrlocat": "ROOFTOP" }, "geometry": { "type": "Point", "coordinates": [ -91.570051, 42.034953 ] } },
{ "type": "Feature", "properties": { "Name": "Hiawatha Police Department", "Address": "101 Emmons Street", "Address2": null, "City": "Hiawatha", "State": "IA", "Zip": "52233", "addrtype": "premise", "addrlocat": "ROOFTOP" }, "geometry": { "type": "Point", "coordinates": [ -91.6752564, 42.03846 ] } },
{ "type": "Feature", "properties": { "Name": "Maquoketa Police Department", "Address": "103 South Niagra Street", "Address2": null, "City": "Maquoketa", "State": "IA", "Zip": "52060", "addrtype": "street_address", "addrlocat": "RANGE_INTERPOLATED" }, "geometry": { "type": "Point", "coordinates": [ -90.6678024, 42.0691647 ] } },
{ "type": "Feature", "properties": { "Name": "Camanche Police Department", "Address": "917 3rd Street", "Address2": null, "City": "Camanche", "State": "IA", "Zip": "52730", "addrtype": "premise", "addrlocat": "ROOFTOP" }, "geometry": { "type": "Point", "coordinates": [ -90.2556839, 41.7815508 ] } },
{ "type": "Feature", "properties": { "Name": "Waterloo Police Department", "Address": "715 Mulberry Street", "Address2": null, "City": "Waterloo", "State": "IA", "Zip": "50703", "addrtype": "street_address", "addrlocat": "ROOFTOP" }, "geometry": { "type": "Point", "coordinates": [ -92.332181, 42.499031 ] } },
{ "type": "Feature", "properties": { "Name": "Cedar Falls Police Department", "Address": "220 Clay Street", "Address2": null, "City": "Cedar Falls", "State": "IA", "Zip": "50613", "addrtype": "premise", "addrlocat": "ROOFTOP" }, "geometry": { "type": "Point", "coordinates": [ -92.4477552, 42.5363677 ] } },
{ "type": "Feature", "properties": { "Name": "Lyon County Sheriff's Office", "Address": "410 South Boone", "Address2": null, "City": "Rock Rapids", "State": "IA", "Zip": "51246", "addrtype": "premise", "addrlocat": "ROOFTOP" }, "geometry": { "type": "Point", "coordinates": [ -96.1690849, 43.4277014 ] } },
{ "type": "Feature", "properties": { "Name": "Ottumwa Police Department", "Address": "330 West 2nd Street", "Address2": null, "City": "Ottumwa", "State": "IA", "Zip": "52501", "addrtype": "street_address", "addrlocat": "RANGE_INTERPOLATED" }, "geometry": { "type": "Point", "coordinates": [ -92.4147086, 41.0207016 ] } },
{ "type": "Feature", "properties": { "Name": "Grinnell Police Department", "Address": "1020 Spring Street", "Address2": null, "City": "Grinnell", "State": "IA", "Zip": "50112", "addrtype": "premise", "addrlocat": "ROOFTOP" }, "geometry": { "type": "Point", "coordinates": [ -92.7283614, 41.7454872 ] } },
{ "type": "Feature", "properties": { "Name": "Black Hawk County Sheriff's Office", "Address": "225 East 6th Street", "Address2": null, "City": "Waterloo", "State": "IA", "Zip": "50703", "addrtype": "premise", "addrlocat": "ROOFTOP" }, "geometry": { "type": "Point", "coordinates": [ -92.3338762, 42.4976057 ] } },
{ "type": "Feature", "properties": { "Name": "Muscatine County Sheriff's Office", "Address": "400 Walnut Street", "Address2": null, "City": "Muscatine", "State": "IA", "Zip": "52761", "addrtype": "street_address", "addrlocat": "ROOFTOP" }, "geometry": { "type": "Point", "coordinates": [ -91.044608, 41.424385 ] } },
{ "type": "Feature", "properties": { "Name": "Altoona Police Department", "Address": "700 1st Avenue", "Address2": null, "City": "Altoona", "State": "IA", "Zip": "50009", "addrtype": "premise", "addrlocat": "ROOFTOP" }, "geometry": { "type": "Point", "coordinates": [ -93.4649486, 41.6453298 ] } },
{ "type": "Feature", "properties": { "Name": "Greenwood Drug, Inc", "Address": "2104 Kimball Ave", "Address2": null, "City": "Waterloo", "State": "IA", "Zip": "50702", "addrtype": "street_address", "addrlocat": "ROOFTOP" }, "geometry": { "type": "Point", "coordinates": [ -92.3578039, 42.470917 ] } },
{ "type": "Feature", "properties": { "Name": "Walgreens", "Address": "3325 16th Ave SW", "Address2": null, "City": "Cedar Rapids", "State": "IA", "Zip": "52404", "addrtype": "premise", "addrlocat": "ROOFTOP" }, "geometry": { "type": "Point", "coordinates": [ -91.7153735, 41.9629278 ] } },
{ "type": "Feature", "properties": { "Name": "Walgreens", "Address": "12753 University Avenue", "Address2": null, "City": "Clive", "State": "IA", "Zip": "50325", "addrtype": "premise", "addrlocat": "ROOFTOP" }, "geometry": { "type": "Point", "coordinates": [ -93.7935181, 41.6010074 ] } },
{ "type": "Feature", "properties": { "Name": "Walgreens", "Address": "3140 SE 14th Street", "Address2": null, "City": "Des Moines", "State": "IA", "Zip": "50320", "addrtype": "street_address", "addrlocat": "ROOFTOP" }, "geometry": { "type": "Point", "coordinates": [ -93.598085, 41.556004 ] } },
{ "type": "Feature", "properties": { "Name": "Walgreens", "Address": "1660 W Locust Street", "Address2": null, "City": "Davenport", "State": "IA", "Zip": "52804", "addrtype": "premise", "addrlocat": "ROOFTOP" }, "geometry": { "type": "Point", "coordinates": [ -90.600558, 41.5389559 ] } },
{ "type": "Feature", "properties": { "Name": "Walgreens", "Address": "1525 E Kimberly Road", "Address2": null, "City": "Davenport", "State": "IA", "Zip": "52807", "addrtype": "premise", "addrlocat": "ROOFTOP" }, "geometry": { "type": "Point", "coordinates": [ -90.5519497, 41.5559848 ] } },
{ "type": "Feature", "properties": { "Name": "Walgreens", "Address": "901 N Ankeny Blvd", "Address2": null, "City": "Ankeny", "State": "IA", "Zip": "50023", "addrtype": "premise", "addrlocat": "ROOFTOP" }, "geometry": { "type": "Point", "coordinates": [ -93.599091, 41.7391218 ] } }
]
}
